{
    "results": [
        {
            "vehicle": 0,
            "route": [],
            "time": 119,
            "attraction": [
                {
                    "name": "Home",
                    "location": {
                        "country": "SG",
                        "cross_street": "Gardens by the Bay",
                        "formatted_address": "Gardens by the Bay",
                        "locality": "Singapore"
                    }
                },
                {
                    "name": "Sun With Moon Japanese Dining & Cafe",
                    "location": {
                        "address": "501 Orchard Rd",
                        "address_extended": "#03-15 Wheelock Place",
                        "country": "SG",
                        "cross_street": "501 Orchard Rd.",
                        "formatted_address": "501 Orchard Rd (501 Orchard Rd.), 238880",
                        "locality": "Singapore",
                        "post_town": "Orchard",
                        "postcode": "238880"
                    }
                },
                {
                    "name": "Jin Fine Dining",
                    "location": {
                        "address": "76 Telok Ayer St",
                        "address_extended": "#01-02 Far East Square",
                        "country": "SG",
                        "cross_street": "",
                        "formatted_address": "76 Telok Ayer St, 048464",
                        "locality": "Singapore",
                        "post_town": "Marina Area",
                        "postcode": "048464"
                    }
                },
                {
                    "name": "Home",
                    "location": {
                        "country": "SG",
                        "cross_street": "Gardens by the Bay",
                        "formatted_address": "Gardens by the Bay",
                        "locality": "Singapore"
                    }
                }
            ]
        },
        {
            "vehicle": 1,
            "route": [],
            "time": 60,
            "attraction": [
                {
                    "name": "Home",
                    "location": {
                        "country": "SG",
                        "cross_street": "Gardens by the Bay",
                        "formatted_address": "Gardens by the Bay",
                        "locality": "Singapore"
                    }
                },
                {
                    "name": "Ramen Dining Keisuke Tokyo",
                    "location": {
                        "address": "Suntec City Mall, 3 Temasek Boulevard",
                        "address_extended": "#02-391/392 Suntec City Mall",
                        "country": "SG",
                        "cross_street": "3 Temasek Blvd",
                        "formatted_address": "Suntec City Mall, 3 Temasek Boulevard (3 Temasek Blvd), 038983",
                        "locality": "Singapore",
                        "post_town": "Marina Area",
                        "postcode": "038983"
                    }
                },
                {
                    "name": "Tong Le Private Dining",
                    "location": {
                        "address": "OUE Tower, 60 Collyer Quay",
                        "address_extended": "Level 4 & 5",
                        "country": "SG",
                        "cross_street": "60 Collyer Quay",
                        "formatted_address": "OUE Tower, 60 Collyer Quay (60 Collyer Quay), 049322",
                        "locality": "Singapore",
                        "post_town": "Marina Area",
                        "postcode": "049322"
                    }
                },
                {
                    "name": "Kuro Kin Japanese Dining",
                    "location": {
                        "address": "The Grandstand, 200 Turf Club Rd",
                        "address_extended": "#01-27",
                        "country": "SG",
                        "cross_street": "200 Turf Club Rd.",
                        "formatted_address": "The Grandstand, 200 Turf Club Rd (200 Turf Club Rd.), 287994",
                        "locality": "Singapore",
                        "post_town": "Newton",
                        "postcode": "287994"
                    }
                },
                {
                    "name": "Home",
                    "location": {
                        "country": "SG",
                        "cross_street": "Gardens by the Bay",
                        "formatted_address": "Gardens by the Bay",
                        "locality": "Singapore"
                    }
                }
            ]
        },
        {
            "vehicle": 2,
            "route": [],
            "time": 77,
            "attraction": [
                {
                    "name": "Home",
                    "location": {
                        "country": "SG",
                        "cross_street": "Gardens by the Bay",
                        "formatted_address": "Gardens by the Bay",
                        "locality": "Singapore"
                    }
                },
                {
                    "name": "National Gallery Singapore",
                    "location": {
                        "address": "1 St. Andrew's Rd",
                        "address_extended": "#01-01 National Gallery",
                        "country": "SG",
                        "formatted_address": "1 St. Andrew's Rd, 178957",
                        "locality": "Singapore",
                        "post_town": "City Hall",
                        "postcode": "178957"
                    }
                },
                {
                    "name": "Gardens by the Bay",
                    "location": {
                        "address": "18 Marina Gardens Dr",
                        "address_extended": "Visitor Centre",
                        "country": "SG",
                        "formatted_address": "18 Marina Gardens Dr, 018953",
                        "locality": "Singapore",
                        "post_town": "Marina Area",
                        "postcode": "018953"
                    }
                },
                {
                    "name": "Home",
                    "location": {
                        "country": "SG",
                        "cross_street": "Gardens by the Bay",
                        "formatted_address": "Gardens by the Bay",
                        "locality": "Singapore"
                    }
                }
            ]
        }
    ]
}