[
  {
    "fsq_id": "592a8cdd9b047373f119a291",
    "name": "Bakalaki Greek Taverna",
    "location": {
      "address": "38A Martin Rd",
      "address_extended": "#01-01",
      "country": "SG",
      "cross_street": "",
      "formatted_address": "38A Martin Rd, 239072",
      "locality": "Singapore",
      "post_town": "Orchard",
      "postcode": "239072"
    },
    "geolocation": {
      "latitude": 1.285649,
      "longitude": 103.834131
    }
  },
  {
    "fsq_id": "4ca1e24946978cfa098dbf7f",
    "name": "Yakiniku YAZAWA",
    "location": {
      "address": "11 Unity St",
      "address_extended": "#01-01 Robertson Walk",
      "country": "SG",
      "cross_street": "11 Unity St.",
      "formatted_address": "11 Unity St (11 Unity St.), 237995",
      "locality": "Singapore",
      "post_town": "Orchard",
      "postcode": "237995"
    },
    "geolocation": {
      "latitude": 1.29198,
      "longitude": 103.841707
    }
  },
  {
    "fsq_id": "4b9b68a5f964a5208a0536e3",
    "name": "Boon Tong Kee",
    "location": {
      "address": "Blk 34 Whampoa West",
      "address_extended": "#01-93",
      "country": "SG",
      "formatted_address": "Blk 34 Whampoa West, 330034",
      "locality": "Singapore",
      "post_town": "Toa Payoh",
      "postcode": "330034"
    },
    "geolocation": {
      "latitude": 1.31989,
      "longitude": 103.862102
    }
  },
  {
    "fsq_id": "55f9641d498eaceb29f0e5bb",
    "name": "Colony",
    "location": {
      "address": "The Ritz-Carlton Millenia Singapore, 7 Raffles Ave",
      "address_extended": "Level 3",
      "country": "SG",
      "cross_street": "7 Raffles Avenue",
      "formatted_address": "The Ritz-Carlton Millenia Singapore, 7 Raffles Ave (7 Raffles Avenue), 039799",
      "locality": "Singapore",
      "post_town": "Marina Area",
      "postcode": "039799"
    },
    "geolocation": {
      "latitude": 1.29068,
      "longitude": 103.860091
    }
  },
  {
    "fsq_id": "5b0783a3829b0c002c3ad31e",
    "name": "Earlybird",
    "location": {
      "address": "17 Jln Pinang",
      "country": "SG",
      "cross_street": "",
      "formatted_address": "17 Jln Pinang, 199149",
      "locality": "Singapore",
      "post_town": "Beach Road",
      "postcode": "199149"
    },
    "geolocation": {
      "latitude": 1.302824,
      "longitude": 103.858038
    }
  },
  {
    "fsq_id": "54103dbd498e9db793f05b47",
    "name": "Foc by Nandu Jubany",
    "location": {
      "address": "40 Hongkong St",
      "country": "SG",
      "cross_street": "",
      "formatted_address": "40 Hongkong St, 059676",
      "locality": "Singapore",
      "post_town": "Marina Area",
      "postcode": "059676"
    },
    "geolocation": {
      "latitude": 1.287392,
      "longitude": 103.847404
    }
  },
  {
    "fsq_id": "4d41cbdb9fa82c0f9a8ab08a",
    "name": "Cut by Wolfgang Puck",
    "location": {
      "address": "2 Bayfront Av, Galleria Level, The Shoppes at Marina Bay Sands",
      "address_extended": "B1-71 (Next to the Theater)",
      "country": "SG",
      "cross_street": "10 Bayfront Ave",
      "formatted_address": "2 Bayfront Av, Galleria Level, The Shoppes at Marina Bay Sands (10 Bayfront Ave), 018956",
      "locality": "Singapore",
      "post_town": "Marina Area",
      "postcode": "018956"
    },
    "geolocation": {
      "latitude": 1.285504,
      "longitude": 103.859542
    }
  },
  {
    "fsq_id": "553b2460498e8cfc0a3cdc32",
    "name": "Yen Yakiniku",
    "location": {
      "address": "15 Ann Siang Rd",
      "country": "SG",
      "cross_street": "",
      "formatted_address": "15 Ann Siang Rd, 069695",
      "locality": "Singapore",
      "post_town": "Marina Area",
      "postcode": "069695"
    },
    "geolocation": {
      "latitude": 1.281058,
      "longitude": 103.8459
    }
  },
  {
    "fsq_id": "57c12529498e382e51d5bf3f",
    "name": "Plank Sourdough Pizza by Baker & Cook",
    "location": {
      "address": "64 Namly Pl",
      "country": "SG",
      "cross_street": "",
      "formatted_address": "64 Namly Pl, 267208",
      "locality": "Singapore",
      "post_town": "Tanglin",
      "postcode": "267208"
    },
    "geolocation": {
      "latitude": 1.32389,
      "longitude": 103.796797
    }
  }
]