[
  {
    "fsq_id": "4c255631b7b8a5938a233ee8",
    "chains": [],
    "geocodes": {
      "main": {
        "latitude": 37.552459,
        "longitude": 126.997849
      }
    },
    "hours": {
      "is_local_holiday": false,
      "open_now": false
    },
    "location": {
      "country": "KR",
      "cross_street": "남산 북측순환로",
      "formatted_address": "남산 북측순환로, 장충동, 서울특별시, Seoul, 140-022",
      "locality": "Seoul",
      "post_town": "용산구",
      "postcode": "140-022",
      "region": "Seoul"
    },
    "name": "Namsan Walking Trail (남산산책로)",
    "popularity": 0.998957474932388,
    "rating": 9.6
  },
  {
    "fsq_id": "516cf335e4b0d6bb08a38db3",
    "chains": [],
    "geocodes": {
      "main": {
        "latitude": 37.50964,
        "longitude": 126.994582
      }
    },
    "hours": {
      "is_local_holiday": false,
      "open_now": false
    },
    "location": {
      "address": "신반포로11길 40",
      "country": "KR",
      "cross_street": "",
      "formatted_address": "신반포로11길 40, 반포2동, 서울특별시, Seoul, 137-040",
      "locality": "Seoul",
      "post_town": "서초구",
      "postcode": "137-040",
      "region": "Seoul"
    },
    "name": "Banpo Hangang Park (반포한강공원)",
    "popularity": 0.9997317641072723,
    "rating": 9.5
  },
  {
    "fsq_id": "556d5650498e747a9ede1da0",
    "chains": [],
    "geocodes": {
      "main": {
        "latitude": 37.559286,
        "longitude": 126.924656
      },
      "roof": {
        "latitude": 37.559286,
        "longitude": 126.924656
      }
    },
    "hours": {
      "display": "Open Daily 0:00-24:00",
      "is_local_holiday": false,
      "open_now": true,
      "regular": [
        {
          "close": "+0000",
          "day": 1,
          "open": "0000"
        },
        {
          "close": "+0000",
          "day": 2,
          "open": "0000"
        },
        {
          "close": "+0000",
          "day": 3,
          "open": "0000"
        },
        {
          "close": "+0000",
          "day": 4,
          "open": "0000"
        },
        {
          "close": "+0000",
          "day": 5,
          "open": "0000"
        },
        {
          "close": "+0000",
          "day": 6,
          "open": "0000"
        },
        {
          "close": "+0000",
          "day": 7,
          "open": "0000"
        }
      ]
    },
    "location": {
      "country": "KR",
      "cross_street": "연남동 구간",
      "formatted_address": "연남동 구간, 서교동, 마포구, Seoul",
      "locality": "Seoul",
      "post_town": "마포구",
      "region": "Seoul"
    },
    "name": "Gyeongui Line Forest Park (경의선숲길공원)",
    "popularity": 0.9995534010652006,
    "rating": 9.4
  },
  {
    "fsq_id": "4bea652c415e20a155fbe4bb",
    "chains": [],
    "geocodes": {
      "main": {
        "latitude": 37.579188,
        "longitude": 126.97613
      }
    },
    "hours": {
      "is_local_holiday": false,
      "open_now": false
    },
    "location": {
      "address": "신림동 1428-3",
      "country": "KR",
      "formatted_address": "신림동 1428-3, 서울특별시, Seoul",
      "locality": "Seoul",
      "post_town": "종로구",
      "region": "Seoul"
    },
    "name": "Gyeonghoeru (경회루)",
    "popularity": 0.9996985802854915,
    "rating": 9.4
  },
  {
    "fsq_id": "4b2b5e20f964a520fdb524e3",
    "chains": [],
    "geocodes": {
      "main": {
        "latitude": 37.525971,
        "longitude": 126.922318
      }
    },
    "hours": {
      "is_local_holiday": false,
      "open_now": false
    },
    "location": {
      "address": "여의공원로 120",
      "country": "KR",
      "formatted_address": "여의공원로 120, 여의도동, 서울특별시, Seoul, 150-010",
      "locality": "Seoul",
      "post_town": "영등포구",
      "postcode": "150-010",
      "region": "Seoul"
    },
    "name": "Yeouido Park (여의도공원)",
    "popularity": 0.9995644623391275,
    "rating": 9.3
  },
  {
    "fsq_id": "4c7a612b2d3ba143bd0e91d0",
    "chains": [],
    "geocodes": {
      "main": {
        "latitude": 37.526177,
        "longitude": 127.016818
      }
    },
    "hours": {
      "is_local_holiday": false,
      "open_now": false
    },
    "location": {
      "address": "잠원로 26-10",
      "country": "KR",
      "cross_street": "잠원지구",
      "formatted_address": "잠원로 26-10 (잠원지구), 신사동, 서울특별시, Seoul, 137-030",
      "locality": "Seoul",
      "post_town": "서초구",
      "postcode": "137-030",
      "region": "Seoul"
    },
    "name": "Jamwon Hangang Park (잠원한강공원)",
    "popularity": 0.9998451421650232,
    "rating": 9.3
  },
  {
    "fsq_id": "4b8a1a3ef964a520196032e3",
    "chains": [],
    "geocodes": {
      "main": {
        "latitude": 37.527473,
        "longitude": 126.932659
      }
    },
    "hours": {
      "is_local_holiday": false,
      "open_now": false
    },
    "location": {
      "address": "여의동로 330",
      "country": "KR",
      "formatted_address": "여의동로 330, 여의도동, 서울특별시, Seoul",
      "locality": "Seoul",
      "post_town": "영등포구",
      "region": "Seoul"
    },
    "name": "Yeouido Hangang Park (여의도한강공원)",
    "popularity": 0.9997939837731111,
    "rating": 9.3
  },
  {
    "fsq_id": "4b8a112bf964a520645e32e3",
    "chains": [],
    "geocodes": {
      "main": {
        "latitude": 37.518087,
        "longitude": 127.081939
      },
      "roof": {
        "latitude": 37.518087,
        "longitude": 127.081939
      }
    },
    "hours": {
      "is_local_holiday": false,
      "open_now": false
    },
    "location": {
      "address": "한가람로 65",
      "country": "KR",
      "cross_street": "",
      "formatted_address": "한가람로 65, 잠실2동, 송파구, Seoul",
      "locality": "Seoul",
      "post_town": "송파구",
      "region": "Seoul"
    },
    "name": "Jamsil Hangang Park (잠실한강공원)",
    "popularity": 0.9992146495511888,
    "rating": 9.3
  },
  {
    "fsq_id": "4b20e631f964a520383524e3",
    "chains": [],
    "geocodes": {
      "main": {
        "latitude": 37.492529,
        "longitude": 126.919357
      }
    },
    "hours": {
      "is_local_holiday": false,
      "open_now": false
    },
    "location": {
      "address": "여의대방로20길 33",
      "country": "KR",
      "formatted_address": "여의대방로20길 33, 서울특별시, Seoul, 156-849",
      "locality": "Seoul",
      "post_town": "동작구",
      "postcode": "156-849",
      "region": "Seoul"
    },
    "name": "Boramae Park (보라매공원)",
    "popularity": 0.9997843051584251,
    "rating": 9.3
  },
  {
    "fsq_id": "4bc944cc3740b71375955e65",
    "chains": [],
    "geocodes": {
      "main": {
        "latitude": 37.550272,
        "longitude": 126.991572
      }
    },
    "hours": {
      "is_local_holiday": false,
      "open_now": false
    },
    "location": {
      "country": "KR",
      "cross_street": "",
      "formatted_address": "서울특별시, Seoul",
      "locality": "Seoul",
      "post_town": "용산구",
      "region": "Seoul"
    },
    "name": "Namsan Park (남산공원)",
    "popularity": 0.9994662935330262,
    "rating": 9.3
  },
  {
    "fsq_id": "4ba614b5f964a5204a3239e3",
    "chains": [],
    "geocodes": {
      "main": {
        "latitude": 37.525941,
        "longitude": 127.038121
      },
      "roof": {
        "latitude": 37.525941,
        "longitude": 127.038121
      }
    },
    "hours": {
      "display": "Open Daily 0:00-5:00",
      "is_local_holiday": false,
      "open_now": false,
      "regular": [
        {
          "close": "0500",
          "day": 1,
          "open": "0000"
        },
        {
          "close": "+0000",
          "day": 1,
          "open": "1700"
        },
        {
          "close": "0500",
          "day": 2,
          "open": "0000"
        },
        {
          "close": "+0000",
          "day": 2,
          "open": "1700"
        },
        {
          "close": "0500",
          "day": 3,
          "open": "0000"
        },
        {
          "close": "+0000",
          "day": 3,
          "open": "1700"
        },
        {
          "close": "0500",
          "day": 4,
          "open": "0000"
        },
        {
          "close": "+0000",
          "day": 4,
          "open": "1700"
        },
        {
          "close": "0500",
          "day": 5,
          "open": "0000"
        },
        {
          "close": "+0000",
          "day": 5,
          "open": "1700"
        },
        {
          "close": "0500",
          "day": 6,
          "open": "0000"
        },
        {
          "close": "+0000",
          "day": 6,
          "open": "1700"
        },
        {
          "close": "0500",
          "day": 7,
          "open": "0000"
        },
        {
          "close": "+0000",
          "day": 7,
          "open": "1700"
        }
      ]
    },
    "location": {
      "address": "도산대로51길 41",
      "country": "KR",
      "cross_street": "압구정로데오점",
      "formatted_address": "도산대로51길 41 (압구정로데오점), 압구정동, 서울특별시, Seoul, 135-897",
      "locality": "Seoul",
      "post_town": "강남구",
      "postcode": "135-897",
      "region": "Seoul"
    },
    "name": "추풍령 칼삼겹살",
    "popularity": 0.9980794863144389,
    "price": 2,
    "rating": 9.1
  },
  {
    "fsq_id": "4bdb727a2a3a0f47ab2aafb6",
    "chains": [],
    "geocodes": {
      "main": {
        "latitude": 37.477216,
        "longitude": 126.961845
      },
      "roof": {
        "latitude": 37.477216,
        "longitude": 126.961845
      }
    },
    "hours": {
      "display": "Mon-Sat 8:00-21:00",
      "is_local_holiday": false,
      "open_now": true,
      "regular": [
        {
          "close": "2100",
          "day": 1,
          "open": "0800"
        },
        {
          "close": "2100",
          "day": 2,
          "open": "0800"
        },
        {
          "close": "2100",
          "day": 3,
          "open": "0800"
        },
        {
          "close": "2100",
          "day": 4,
          "open": "0800"
        },
        {
          "close": "2100",
          "day": 5,
          "open": "0800"
        },
        {
          "close": "2100",
          "day": 6,
          "open": "0800"
        }
      ]
    },
    "location": {
      "country": "KR",
      "cross_street": "본점",
      "formatted_address": "본점, 낙성대동, 서울특별시, Seoul",
      "locality": "Seoul",
      "post_town": "관악구",
      "region": "Seoul"
    },
    "name": "Jean Boulangerie (쟝 블랑제리)",
    "popularity": 0.9965018721206121,
    "price": 2,
    "rating": 9.1
  },
  {
    "fsq_id": "4b625691f964a52015432ae3",
    "chains": [],
    "geocodes": {
      "main": {
        "latitude": 37.56821,
        "longitude": 126.998775
      },
      "roof": {
        "latitude": 37.56821,
        "longitude": 126.998775
      }
    },
    "hours": {
      "display": "Tue-Sun 11:30-21:30",
      "is_local_holiday": false,
      "open_now": true,
      "regular": [
        {
          "close": "2130",
          "day": 2,
          "open": "1130"
        },
        {
          "close": "2130",
          "day": 3,
          "open": "1130"
        },
        {
          "close": "2130",
          "day": 4,
          "open": "1130"
        },
        {
          "close": "2130",
          "day": 5,
          "open": "1130"
        },
        {
          "close": "2130",
          "day": 6,
          "open": "1130"
        },
        {
          "close": "2130",
          "day": 7,
          "open": "1130"
        }
      ]
    },
    "location": {
      "address": "주교동 118-1",
      "country": "KR",
      "cross_street": "본점",
      "formatted_address": "주교동 118-1 (본점), 서울특별시, Seoul, 100-330",
      "locality": "Seoul",
      "post_town": "중구",
      "postcode": "100-330",
      "region": "Seoul"
    },
    "name": "Woo Lae Oak (우래옥)",
    "popularity": 0.9992478333729695,
    "price": 2,
    "rating": 9.1
  },
  {
    "fsq_id": "4ebe29f029c25ce5a139de47",
    "chains": [],
    "geocodes": {
      "main": {
        "latitude": 37.501826,
        "longitude": 127.010506
      },
      "roof": {
        "latitude": 37.501826,
        "longitude": 127.010506
      }
    },
    "hours": {
      "is_local_holiday": false,
      "open_now": false
    },
    "location": {
      "address": "반포동 54-10",
      "address_extended": "청구빌딩 1층",
      "country": "KR",
      "cross_street": "본점",
      "formatted_address": "반포동 54-10 (본점), 반포4동, 서울특별시, Seoul, 137-040",
      "locality": "Seoul",
      "post_town": "서초구",
      "postcode": "137-040",
      "region": "Seoul"
    },
    "name": "마루심",
    "popularity": 0.9965751530603779,
    "price": 2,
    "rating": 9.1
  },
  {
    "fsq_id": "573ff7b5498e91d7f78ecf35",
    "chains": [],
    "geocodes": {
      "main": {
        "latitude": 37.515955,
        "longitude": 127.036007
      }
    },
    "hours": {
      "is_local_holiday": false,
      "open_now": false
    },
    "location": {
      "address": "논현동 115-10",
      "country": "KR",
      "cross_street": "",
      "formatted_address": "논현동 115-10, 논현2동, 서울특별시, Seoul, 135-010",
      "locality": "Seoul",
      "post_town": "강남구",
      "postcode": "135-010",
      "region": "Seoul"
    },
    "name": "진미평양냉면",
    "popularity": 0.9986159580998943,
    "price": 1,
    "rating": 9.1
  },
  {
    "fsq_id": "5b8a1a8abcbf7a002cf7af16",
    "chains": [
      {
        "id": "97207308-6e92-4b67-978d-bee0ccb03fce",
        "name": "Starbucks Reserve"
      }
    ],
    "geocodes": {
      "main": {
        "latitude": 37.527368,
        "longitude": 127.033193
      }
    },
    "hours": {
      "display": "Open Daily 7:00-23:00",
      "is_local_holiday": false,
      "open_now": true,
      "regular": [
        {
          "close": "2300",
          "day": 1,
          "open": "0700"
        },
        {
          "close": "2300",
          "day": 2,
          "open": "0700"
        },
        {
          "close": "2300",
          "day": 3,
          "open": "0700"
        },
        {
          "close": "2300",
          "day": 4,
          "open": "0700"
        },
        {
          "close": "2300",
          "day": 5,
          "open": "0700"
        },
        {
          "close": "2300",
          "day": 6,
          "open": "0700"
        },
        {
          "close": "2300",
          "day": 7,
          "open": "0700"
        }
      ]
    },
    "location": {
      "address": "언주로 861",
      "country": "KR",
      "cross_street": "압구정R점",
      "formatted_address": "언주로 861 (압구정R점), 압구정동, 강남구, Seoul",
      "locality": "Seoul",
      "post_town": "강남구",
      "region": "Seoul"
    },
    "name": "Starbucks Reserve (스타벅스 리저브)",
    "popularity": 0.9975084480479617,
    "price": 1,
    "rating": 9
  },
  {
    "fsq_id": "4ba1a9adf964a5209bc637e3",
    "chains": [],
    "geocodes": {
      "main": {
        "latitude": 37.567672,
        "longitude": 126.979691
      },
      "roof": {
        "latitude": 37.567672,
        "longitude": 126.979691
      }
    },
    "hours": {
      "display": "Mon-Fri 7:00-20:00; Sat-Sun 7:00-16:00",
      "is_local_holiday": false,
      "open_now": true,
      "regular": [
        {
          "close": "2000",
          "day": 1,
          "open": "0700"
        },
        {
          "close": "2000",
          "day": 2,
          "open": "0700"
        },
        {
          "close": "2000",
          "day": 3,
          "open": "0700"
        },
        {
          "close": "2000",
          "day": 4,
          "open": "0700"
        },
        {
          "close": "2000",
          "day": 5,
          "open": "0700"
        },
        {
          "close": "1600",
          "day": 6,
          "open": "0700"
        },
        {
          "close": "1600",
          "day": 7,
          "open": "0700"
        }
      ]
    },
    "location": {
      "address": "다동 173",
      "country": "KR",
      "formatted_address": "다동 173, 명동, 서울특별시, Seoul, 100-180",
      "locality": "Seoul",
      "post_town": "중구",
      "postcode": "100-180",
      "region": "Seoul"
    },
    "name": "무교동북어국집",
    "popularity": 0.9975637544175963,
    "price": 1,
    "rating": 9
  },
  {
    "fsq_id": "5187a802498e765cd80cc612",
    "chains": [],
    "geocodes": {
      "main": {
        "latitude": 37.545331,
        "longitude": 126.932331
      }
    },
    "hours": {
      "display": "Mon 8:00-21:30; Sat 8:00-21:30; Sun 9:00-18:00",
      "is_local_holiday": false,
      "open_now": true,
      "regular": [
        {
          "close": "2130",
          "day": 1,
          "open": "0800"
        },
        {
          "close": "2130",
          "day": 6,
          "open": "0800"
        },
        {
          "close": "1800",
          "day": 7,
          "open": "0900"
        }
      ]
    },
    "location": {
      "address": "토정로 194",
      "country": "KR",
      "cross_street": "광흥창점",
      "formatted_address": "토정로 194 (광흥창점), 신수동, 서울특별시, Seoul",
      "locality": "Seoul",
      "post_town": "마포구",
      "region": "Seoul"
    },
    "name": "PUBLIQUE Underground Factory (퍼블리크)",
    "popularity": 0.9988800460148995,
    "price": 1,
    "rating": 8.9
  },
  {
    "fsq_id": "5ce7cbfbfb8e59002c079c2d",
    "chains": [],
    "geocodes": {
      "main": {
        "latitude": 37.526428,
        "longitude": 127.035166
      },
      "roof": {
        "latitude": 37.526428,
        "longitude": 127.035166
      }
    },
    "hours": {
      "display": "Mon 12:00-24:00; Tue-Sat 0:00-24:00; Sun 0:00-1:00",
      "is_local_holiday": false,
      "open_now": true,
      "regular": [
        {
          "close": "+0000",
          "day": 1,
          "open": "1200"
        },
        {
          "close": "0100",
          "day": 2,
          "open": "0000"
        },
        {
          "close": "+0000",
          "day": 2,
          "open": "1200"
        },
        {
          "close": "0100",
          "day": 3,
          "open": "0000"
        },
        {
          "close": "+0000",
          "day": 3,
          "open": "1200"
        },
        {
          "close": "0100",
          "day": 4,
          "open": "0000"
        },
        {
          "close": "+0000",
          "day": 4,
          "open": "1200"
        },
        {
          "close": "0100",
          "day": 5,
          "open": "0000"
        },
        {
          "close": "+0000",
          "day": 5,
          "open": "1200"
        },
        {
          "close": "0100",
          "day": 6,
          "open": "0000"
        },
        {
          "close": "+0000",
          "day": 6,
          "open": "1200"
        },
        {
          "close": "0100",
          "day": 7,
          "open": "0000"
        }
      ]
    },
    "location": {
      "address": "신사동 644-7",
      "country": "KR",
      "cross_street": "",
      "formatted_address": "신사동 644-7, 압구정동, 서울특별시, Seoul, 135-896",
      "locality": "Seoul",
      "post_town": "강남구",
      "postcode": "135-896",
      "region": "Seoul"
    },
    "name": "있을 재",
    "popularity": 0.9947458948847139,
    "price": 2,
    "rating": 8.9
  },
  {
    "fsq_id": "54769126498ef3265f8f053b",
    "chains": [],
    "geocodes": {
      "main": {
        "latitude": 37.511384,
        "longitude": 127.059953
      }
    },
    "hours": {
      "display": "Open Daily 10:30-20:30",
      "is_local_holiday": false,
      "open_now": true,
      "regular": [
        {
          "close": "2030",
          "day": 1,
          "open": "1030"
        },
        {
          "close": "2030",
          "day": 2,
          "open": "1030"
        },
        {
          "close": "2030",
          "day": 3,
          "open": "1030"
        },
        {
          "close": "2030",
          "day": 4,
          "open": "1030"
        },
        {
          "close": "2030",
          "day": 5,
          "open": "1030"
        },
        {
          "close": "2030",
          "day": 6,
          "open": "1030"
        },
        {
          "close": "2030",
          "day": 7,
          "open": "1030"
        }
      ]
    },
    "location": {
      "address": "영동대로 513",
      "country": "KR",
      "cross_street": "코엑스몰점",
      "formatted_address": "영동대로 513 (코엑스몰점), 삼성1동, 서울특별시, Seoul",
      "locality": "Seoul",
      "post_town": "강남구",
      "region": "Seoul"
    },
    "name": "하동관",
    "popularity": 0.9993542981345162,
    "rating": 8.9
  },
  {
    "fsq_id": "5449c15a498e9587ade0bd56",
    "chains": [],
    "geocodes": {
      "main": {
        "latitude": 37.584058,
        "longitude": 126.99204
      }
    },
    "hours": {
      "is_local_holiday": false,
      "open_now": false
    },
    "location": {
      "country": "KR",
      "cross_street": "",
      "formatted_address": "종로1.2.3.4가동, 서울특별시, Seoul",
      "locality": "Seoul",
      "region": "Seoul"
    },
    "name": "AeRyeonJi Pond and Uiduhap",
    "popularity": 0.976739523590932
  },
  {
    "fsq_id": "57c1c1cccd10e5cf82110480",
    "chains": [],
    "geocodes": {
      "main": {
        "latitude": 37.534084,
        "longitude": 126.995102
      },
      "roof": {
        "latitude": 37.534084,
        "longitude": 126.995102
      }
    },
    "hours": {
      "display": "Fri 23:00-24:00; Sat-Sun 0:00-7:00",
      "is_local_holiday": false,
      "open_now": false,
      "regular": [
        {
          "close": "+0000",
          "day": 5,
          "open": "2300"
        },
        {
          "close": "0700",
          "day": 6,
          "open": "0000"
        },
        {
          "close": "+0000",
          "day": 6,
          "open": "2300"
        },
        {
          "close": "0700",
          "day": 7,
          "open": "0000"
        }
      ]
    },
    "location": {
      "address": "보광로60길 17",
      "country": "KR",
      "cross_street": "",
      "formatted_address": "보광로60길 17, 이태원1동, 서울특별시, Seoul",
      "locality": "Seoul",
      "post_town": "용산구",
      "region": "Seoul"
    },
    "name": "BETON BRUT (베톤부르)",
    "popularity": 0.9830555110032022,
    "price": 3,
    "rating": 8.8
  },
  {
    "fsq_id": "4bfea9c105672d7faa7c0a04",
    "chains": [],
    "geocodes": {
      "main": {
        "latitude": 37.524204,
        "longitude": 127.054784
      }
    },
    "hours": {
      "is_local_holiday": false,
      "open_now": false
    },
    "location": {
      "address": "영동대로 737",
      "country": "KR",
      "cross_street": "",
      "formatted_address": "영동대로 737, 청담동, 서울특별시, Seoul, 135-952",
      "locality": "Seoul",
      "post_town": "강남구",
      "postcode": "135-952",
      "region": "Seoul"
    },
    "name": "H2O (에이치투오)",
    "popularity": 0.969746033150638,
    "price": 3,
    "rating": 6.1
  },
  {
    "fsq_id": "4e621092e4cdf1e2bf1f2f3c",
    "chains": [],
    "geocodes": {
      "main": {
        "latitude": 37.560808,
        "longitude": 126.973481
      }
    },
    "hours": {
      "is_local_holiday": false,
      "open_now": false
    },
    "location": {
      "country": "KR",
      "cross_street": "",
      "formatted_address": "소공동, 서울특별시, Seoul",
      "locality": "Seoul",
      "region": "Seoul"
    },
    "name": "미스터커피",
    "popularity": 0.8285322795626372,
    "price": 3
  },
  {
    "fsq_id": "514de05fe4b073c939579e4d",
    "chains": [],
    "geocodes": {
      "main": {
        "latitude": 37.534782,
        "longitude": 126.998368
      },
      "roof": {
        "latitude": 37.534782,
        "longitude": 126.998368
      }
    },
    "hours": {
      "is_local_holiday": false,
      "open_now": false
    },
    "location": {
      "country": "KR",
      "cross_street": "",
      "formatted_address": "한남동"
    },
    "name": "Lucid Dream",
    "popularity": 0.39430952762829696,
    "price": 3
  },
  {
    "fsq_id": "53d92a3c498e20e413e4c305",
    "chains": [],
    "geocodes": {
      "main": {
        "latitude": 37.572717,
        "longitude": 126.990856
      },
      "roof": {
        "latitude": 37.572717,
        "longitude": 126.990856
      }
    },
    "hours": {
      "is_local_holiday": false,
      "open_now": false
    },
    "location": {
      "address": "돈화문로11길 10",
      "country": "KR",
      "cross_street": "",
      "formatted_address": "돈화문로11길 10, 종로1.2.3.4가동, 종로구, Seoul",
      "locality": "Seoul",
      "region": "Seoul"
    },
    "name": "club 50",
    "popularity": 0.9173985542914977,
    "price": 3
  },
  {
    "fsq_id": "58b1abf81174207840f53337",
    "chains": [],
    "geocodes": {
      "main": {
        "latitude": 37.519213,
        "longitude": 127.023709
      },
      "roof": {
        "latitude": 37.519213,
        "longitude": 127.023709
      }
    },
    "hours": {
      "is_local_holiday": false,
      "open_now": false
    },
    "location": {
      "country": "KR",
      "cross_street": "",
      "formatted_address": "신사동"
    },
    "name": "APT CLUB SEOUL (아파트 클럽 서울)",
    "popularity": 0.4643329222226524,
    "price": 3
  },
  {
    "fsq_id": "62f4edb3fbb5424beeecf804",
    "chains": [],
    "geocodes": {
      "main": {
        "latitude": 37.528283,
        "longitude": 127.034968
      }
    },
    "hours": {
      "is_local_holiday": false,
      "open_now": false
    },
    "location": {
      "address": "언주로174길 13 지하1층",
      "country": "KR",
      "cross_street": "",
      "formatted_address": "언주로174길 13 지하1층, 압구정동, 서울특별시, Seoul",
      "locality": "Seoul",
      "post_town": "강남구",
      "region": "Seoul"
    },
    "name": "Six Night",
    "popularity": 0.9654113964305269,
    "price": 3
  },
  {
    "fsq_id": "62efa522d60fb254e8abca9c",
    "chains": [],
    "geocodes": {
      "main": {
        "latitude": 37.517901,
        "longitude": 127.02951
      }
    },
    "hours": {
      "is_local_holiday": false,
      "open_now": false
    },
    "location": {
      "country": "KR",
      "cross_street": "",
      "formatted_address": "논현2동, 서울특별시, Seoul",
      "locality": "Seoul",
      "region": "Seoul"
    },
    "name": "빌리언스 서울",
    "popularity": 0.9939080033847498,
    "price": 3
  },
  {
    "fsq_id": "4cfa7289084f54814a2d7b09",
    "chains": [],
    "geocodes": {
      "main": {
        "latitude": 37.552081,
        "longitude": 126.922948
      },
      "roof": {
        "latitude": 37.552081,
        "longitude": 126.922948
      }
    },
    "hours": {
      "is_local_holiday": false,
      "open_now": false
    },
    "location": {
      "country": "KR",
      "cross_street": "",
      "formatted_address": "서교동"
    },
    "name": "Zen Bar 2",
    "popularity": 0.5488396723650663,
    "price": 3
  },
  {
    "fsq_id": "4caf511f562d224ba2090d88",
    "chains": [],
    "geocodes": {
      "main": {
        "latitude": 37.550282,
        "longitude": 126.922908
      },
      "roof": {
        "latitude": 37.550282,
        "longitude": 126.922908
      }
    },
    "hours": {
      "is_local_holiday": false,
      "open_now": false
    },
    "location": {
      "country": "KR",
      "cross_street": "",
      "formatted_address": "서교동, 서울특별시, Seoul, 121-828",
      "locality": "Seoul",
      "postcode": "121-828",
      "region": "Seoul"
    },
    "name": "club saab",
    "popularity": 0.2470134560397321,
    "price": 3
  },
  {
    "fsq_id": "53bf934e498e874e3ac0a325",
    "chains": [],
    "geocodes": {
      "main": {
        "latitude": 37.513358,
        "longitude": 127.058582
      },
      "roof": {
        "latitude": 37.513358,
        "longitude": 127.058582
      }
    },
    "hours": {
      "is_local_holiday": false,
      "open_now": false
    },
    "location": {
      "address": "영동대로 513",
      "country": "KR",
      "cross_street": "코엑스점",
      "formatted_address": "영동대로 513 (코엑스점), 삼성1동, 서울특별시, Seoul",
      "locality": "Seoul",
      "post_town": "강남구",
      "region": "Seoul"
    },
    "name": "Boutique M",
    "popularity": 0.991882407596883,
    "rating": 9.3
  },
  {
    "fsq_id": "4b930014f964a520c02d34e3",
    "chains": [],
    "geocodes": {
      "main": {
        "latitude": 37.479219,
        "longitude": 127.013939
      }
    },
    "hours": {
      "is_local_holiday": false,
      "open_now": false
    },
    "location": {
      "address": "남부순환로 2406",
      "country": "KR",
      "formatted_address": "남부순환로 2406, 서초3동, 서울특별시, Seoul",
      "locality": "Seoul",
      "post_town": "서초구",
      "region": "Seoul"
    },
    "name": "Seoul Arts Center (예술의전당)",
    "popularity": 0.9997981317508338,
    "rating": 9.3
  },
  {
    "fsq_id": "518dc2dd498e42d4587fafdb",
    "chains": [],
    "geocodes": {
      "main": {
        "latitude": 37.5506,
        "longitude": 127.077544
      },
      "roof": {
        "latitude": 37.5506,
        "longitude": 127.077544
      }
    },
    "hours": {
      "is_local_holiday": false,
      "open_now": false
    },
    "location": {
      "address": "능동로 216",
      "country": "KR",
      "cross_street": "",
      "formatted_address": "능동로 216, 능동, 서울특별시, Seoul, 143-847",
      "locality": "Seoul",
      "post_town": "광진구",
      "postcode": "143-847",
      "region": "Seoul"
    },
    "name": "Seoul Children's Museum (서울상상나라)",
    "popularity": 0.9947846093434581,
    "rating": 9.2
  },
  {
    "fsq_id": "5aef1523e7a237002cab1801",
    "chains": [],
    "geocodes": {
      "main": {
        "latitude": 37.569558,
        "longitude": 126.897659
      }
    },
    "hours": {
      "is_local_holiday": false,
      "open_now": false
    },
    "location": {
      "address": "월드컵로 240",
      "country": "KR",
      "cross_street": "",
      "formatted_address": "월드컵로 240, 성산2동, 서울특별시, Seoul, 121-250",
      "locality": "Seoul",
      "post_town": "마포구",
      "postcode": "121-250",
      "region": "Seoul"
    },
    "name": "MEGABOX Sangam Worldcup Stadium (메가박스 상암월드컵경기장)",
    "popularity": 0.9958354303665153,
    "rating": 9.2
  },
  {
    "fsq_id": "5280daf911d2fe39aeaa0b04",
    "chains": [],
    "geocodes": {
      "main": {
        "latitude": 37.478792,
        "longitude": 127.011967
      },
      "roof": {
        "latitude": 37.478792,
        "longitude": 127.011967
      }
    },
    "hours": {
      "is_local_holiday": false,
      "open_now": false
    },
    "location": {
      "address": "남부순환로 2406",
      "country": "KR",
      "cross_street": "",
      "formatted_address": "남부순환로 2406, 서초3동, 서울특별시, Seoul, 137-718",
      "locality": "Seoul",
      "post_town": "서초구",
      "postcode": "137-718",
      "region": "Seoul"
    },
    "name": "Seoul Arts Center Concert Hall (예술의전당 콘서트홀)",
    "popularity": 0.99886483676325,
    "rating": 9.1
  },
  {
    "fsq_id": "4bac7324f964a5209ef53ae3",
    "chains": [],
    "geocodes": {
      "main": {
        "latitude": 37.569679,
        "longitude": 126.97221
      },
      "roof": {
        "latitude": 37.569679,
        "longitude": 126.97221
      }
    },
    "hours": {
      "is_local_holiday": false,
      "open_now": false
    },
    "location": {
      "address": "신문로1가 226",
      "address_extended": "흥국생명빌딩 지하1층",
      "country": "KR",
      "cross_street": "",
      "formatted_address": "신문로1가 226, 사직동, 서울특별시, Seoul, 110-786",
      "locality": "Seoul",
      "post_town": "종로구",
      "postcode": "110-786",
      "region": "Seoul"
    },
    "name": "cinecube (씨네큐브)",
    "popularity": 0.9971461913268551,
    "rating": 9.1
  },
  {
    "fsq_id": "5018ceaee4b044669efce83f",
    "chains": [],
    "geocodes": {
      "main": {
        "latitude": 37.524372,
        "longitude": 127.029485
      },
      "roof": {
        "latitude": 37.524372,
        "longitude": 127.029485
      }
    },
    "hours": {
      "is_local_holiday": false,
      "open_now": false
    },
    "location": {
      "address": "압구정로30길 45",
      "country": "KR",
      "cross_street": "",
      "formatted_address": "압구정로30길 45, 압구정동, 서울특별시, Seoul",
      "locality": "Seoul",
      "post_town": "강남구",
      "region": "Seoul"
    },
    "name": "CGV 아트하우스",
    "popularity": 0.9957994812262528,
    "rating": 9.1
  },
  {
    "fsq_id": "4df7fba518385456c7f37de2",
    "chains": [],
    "geocodes": {
      "main": {
        "latitude": 37.578696,
        "longitude": 126.980224
      },
      "roof": {
        "latitude": 37.578696,
        "longitude": 126.980224
      }
    },
    "hours": {
      "display": "Mon-Tue 10:00-18:00; Wed 10:00-21:00; Thu-Fri 10:00-18:00; Sat 10:00-21:00; Sun 10:00-18:00",
      "is_local_holiday": false,
      "open_now": true,
      "regular": [
        {
          "close": "1800",
          "day": 1,
          "open": "1000"
        },
        {
          "close": "1800",
          "day": 2,
          "open": "1000"
        },
        {
          "close": "2100",
          "day": 3,
          "open": "1000"
        },
        {
          "close": "1800",
          "day": 4,
          "open": "1000"
        },
        {
          "close": "1800",
          "day": 5,
          "open": "1000"
        },
        {
          "close": "2100",
          "day": 6,
          "open": "1000"
        },
        {
          "close": "1800",
          "day": 7,
          "open": "1000"
        }
      ]
    },
    "location": {
      "address": "삼청로 30",
      "country": "KR",
      "cross_street": "",
      "formatted_address": "삼청로 30, 삼청동, 서울특별시, Seoul, 110-200",
      "locality": "Seoul",
      "post_town": "종로구",
      "postcode": "110-200",
      "region": "Seoul"
    },
    "name": "National Museum of Modern and Contemporary Art (국립현대미술관 서울관)",
    "popularity": 0.9995824369092589,
    "rating": 9
  },
  {
    "fsq_id": "4b6e9691f964a5200dc32ce3",
    "chains": [],
    "geocodes": {
      "main": {
        "latitude": 37.478739,
        "longitude": 127.011696
      },
      "roof": {
        "latitude": 37.478739,
        "longitude": 127.011696
      }
    },
    "hours": {
      "is_local_holiday": false,
      "open_now": false
    },
    "location": {
      "address": "남부순환로 2406",
      "country": "KR",
      "formatted_address": "남부순환로 2406, 서초3동, 서울특별시, Seoul, 137-718",
      "locality": "Seoul",
      "post_town": "서초구",
      "postcode": "137-718",
      "region": "Seoul"
    },
    "name": "Seoul Arts Center Music Hall (예술의전당 음악당)",
    "popularity": 0.9990155466205043,
    "rating": 9
  },
  {
    "fsq_id": "4d2457f1fdfb236a00f07767",
    "chains": [],
    "geocodes": {
      "main": {
        "latitude": 37.57775,
        "longitude": 126.988543
      },
      "roof": {
        "latitude": 37.57775,
        "longitude": 126.988543
      }
    },
    "hours": {
      "display": "Tue-Sun 10:00-19:00",
      "is_local_holiday": false,
      "open_now": true,
      "regular": [
        {
          "close": "1900",
          "day": 2,
          "open": "1000"
        },
        {
          "close": "1900",
          "day": 3,
          "open": "1000"
        },
        {
          "close": "1900",
          "day": 4,
          "open": "1000"
        },
        {
          "close": "1900",
          "day": 5,
          "open": "1000"
        },
        {
          "close": "1900",
          "day": 6,
          "open": "1000"
        },
        {
          "close": "1900",
          "day": 7,
          "open": "1000"
        }
      ]
    },
    "location": {
      "address": "율곡로 83",
      "country": "KR",
      "cross_street": "",
      "formatted_address": "율곡로 83, 가회동, 서울특별시, Seoul, 110-280",
      "locality": "Seoul",
      "post_town": "종로구",
      "postcode": "110-280",
      "region": "Seoul"
    },
    "name": "ARARIO MUSEUM in SPACE (아라리오 뮤지엄 인 스페이스)",
    "popularity": 0.9966332247484943,
    "rating": 9
  }
]